[
    {
        "name": "Dal.komm Coffee - Funan",
        "latitude": 1.2914151,
        "longitude": 103.8497955
    },
    {
        "name": "Chalong - Charcoal Grill Meat - One Raffles Place",
        "latitude": 1.2842756249999998,
        "longitude": 103.8512289
    },
    {
        "name": "Toast Box - Phillip Street",
        "latitude": 1.2847615961954273,
        "longitude": 103.84985212857143
    },
    {
        "name": "Co Chung Restaurant - Lorong Telok",
        "latitude": 1.28699182092609,
        "longitude": 103.848753310453
    },
    {
        "name": "Hello Korean Bbq - Circular Road",
        "latitude": 1.286049632996523,
        "longitude": 103.8494082089253
    },
    {
        "name": "Co Nut Ink - Esplanade Theatres On The Bay",
        "latitude": 1.2891794631220677,
        "longitude": 103.85536852111693
    },
    {
        "name": "Tandoori Zaika - 70 Boat Quay",
        "latitude": 1.2879324,
        "longitude": 103.849367
    },
    {
        "name": "Curry Village-Authentic North Indian Cuisine - Boat Quay",
        "latitude": 1.286321663976937,
        "longitude": 103.84963428122043
    },
    {
        "name": "Beef Bro Nasi Lemak - Clifford Centre",
        "latitude": 1.283907875,
        "longitude": 103.8521038
    },
    {
        "name": "HANS IM GL\u00dcCK German Burgergrill - Boat Quay",
        "latitude": 1.28798635,
        "longitude": 103.8493528
    },
    {
        "name": "Tiong Bahru Bakery - Funan",
        "latitude": 1.291366,
        "longitude": 103.849947
    },
    {
        "name": "Flavours by Saute - Funan",
        "latitude": 1.291416,
        "longitude": 103.8499566375
    },
    {
        "name": "Dunkin' Donuts - Funan Mall",
        "latitude": 1.2914274,
        "longitude": 103.85052218
    },
    {
        "name": "Indian House - Boat Quay",
        "latitude": 1.2869870454508168,
        "longitude": 103.84938902597231
    },
    {
        "name": "Boost Juice Bars - Funan",
        "latitude": 1.29106578346931,
        "longitude": 103.85038604662
    },
    {
        "name": "MOS Burger - One Fullerton",
        "latitude": 1.2864212,
        "longitude": 103.85430495
    },
    {
        "name": "C-Mart - High Street Plaza\ud83c\udfcd",
        "latitude": 1.290551798775176,
        "longitude": 103.84940929336389
    },
    {
        "name": "Watsons - Funan",
        "latitude": 1.2912667833333333,
        "longitude": 103.8504891
    },
    {
        "name": "SF Fruits & Juices - Raffles Place Mrt Station",
        "latitude": 1.284531480433941,
        "longitude": 103.85150592011075
    },
    {
        "name": "Milksha - Change Alley Mall",
        "latitude": 1.2843207951012479,
        "longitude": 103.8519589
    },
    {
        "name": "W Acai - Funan",
        "latitude": 1.291486,
        "longitude": 103.849881
    },
    {
        "name": "Upshot Coffee - One Raffles Place",
        "latitude": 1.284898274,
        "longitude": 103.8513931
    },
    {
        "name": "Kazo Premium - Funan",
        "latitude": 1.29128860338776,
        "longitude": 103.850389532962
    },
    {
        "name": "Lucky Saigon - North Canal Road",
        "latitude": 1.2862877,
        "longitude": 103.84841596
    },
    {
        "name": "Picante Restaurant & Bar - Boat Quay",
        "latitude": 1.28626,
        "longitude": 103.84965
    },
    {
        "name": "Dark Horse - Boat Quay",
        "latitude": 1.286037379,
        "longitude": 103.8498318
    },
    {
        "name": "Jidai - Circular Road",
        "latitude": 1.28781967,
        "longitude": 103.849009
    },
    {
        "name": "Endless - Circular Road",
        "latitude": 1.287865912,
        "longitude": 103.8490046
    },
    {
        "name": "Temptation Sg - Circular Road",
        "latitude": 1.287886596,
        "longitude": 103.8490005
    },
    {
        "name": "Wip Wup Bistro - Boat Quay Conservation Area",
        "latitude": 1.28791,
        "longitude": 103.84896
    },
    {
        "name": "Bollywood Spice - South Bridge Road",
        "latitude": 1.28822825,
        "longitude": 103.848972
    },
    {
        "name": "Sonny's Pizza - Boat Quay Conservation Area",
        "latitude": 1.287490684,
        "longitude": 103.8489859
    },
    {
        "name": "C-Mart - High Street",
        "latitude": 1.290551798775176,
        "longitude": 103.84940929336389
    },
    {
        "name": "ChaTraMue - One Raffles Place",
        "latitude": 1.284347,
        "longitude": 103.851227
    },
    {
        "name": "The Oyster Bank - Funan",
        "latitude": 1.2913241,
        "longitude": 103.8502878
    },
    {
        "name": "Bottles & Bottles - One Raffles Place",
        "latitude": 1.2840804666666665,
        "longitude": 103.85106030000001
    },
    {
        "name": "Dum Pukht Curry - Boat Quay",
        "latitude": 1.2877389,
        "longitude": 103.8493482
    },
    {
        "name": "Mirch Masalah - Boat Quay",
        "latitude": 1.2863,
        "longitude": 103.84962
    },
    {
        "name": "Vespetta Italian Restaurant - 40 Boat Quay",
        "latitude": 1.28650925,
        "longitude": 103.84960121600288
    },
    {
        "name": "#Foodcoholic - 40 Circular Road",
        "latitude": 1.2866722478159125,
        "longitude": 103.84933102607127
    },
    {
        "name": "Authentic Hock Lam Beef Noodles - 6 North Canal Road",
        "latitude": 1.2858520514167553,
        "longitude": 103.8489851
    },
    {
        "name": "Burger King - Hitachi Tower",
        "latitude": 1.284294,
        "longitude": 103.8524681
    },
    {
        "name": "Gong Cha - Funan",
        "latitude": 1.2914095000779184,
        "longitude": 103.85050343309535
    },
    {
        "name": "Tip Top Curry Puff - One Raffles Place",
        "latitude": 1.2840816,
        "longitude": 103.8511791
    },
    {
        "name": "Greendot - Raffles Place",
        "latitude": 1.2840831,
        "longitude": 103.85100001666666
    },
    {
        "name": "Ajumma's - Funan",
        "latitude": 1.2913251,
        "longitude": 103.8500892
    },
    {
        "name": "Souperstar - One Raffles Place",
        "latitude": 1.284500731659856,
        "longitude": 103.8512442
    },
    {
        "name": "Wolf Burgers - Funan",
        "latitude": 1.2911804636836877,
        "longitude": 103.85039447420291
    },
    {
        "name": "Curry Home - Boat Quay",
        "latitude": 1.28734945,
        "longitude": 103.84929942500001
    },
    {
        "name": "Kin Tub Thai Steamboat - Boat Quay",
        "latitude": 1.2871157073980066,
        "longitude": 103.8493561398225
    },
    {
        "name": "My Little Spanish Place - Boat Quay",
        "latitude": 1.2871697,
        "longitude": 103.849326
    },
    {
        "name": "Izakaya Shindo - Boat Quay",
        "latitude": 1.2875570576168094,
        "longitude": 103.84922969716708
    },
    {
        "name": "Moonlight Masala - Boat Quay",
        "latitude": 1.28778,
        "longitude": 103.8492
    },
    {
        "name": "The Fine Line - Boat Quay",
        "latitude": 1.28751,
        "longitude": 103.84922
    },
    {
        "name": "Charlie's Restaurant & Bar - Boat Quay",
        "latitude": 1.28614,
        "longitude": 103.84989333333333
    },
    {
        "name": "Pasta Boys - Boat Quay",
        "latitude": 1.2860111,
        "longitude": 103.8500169
    },
    {
        "name": "Don Jr - Funan",
        "latitude": 1.291066,
        "longitude": 103.850386
    },
    {
        "name": "Sinpopo Coffee - Funan ",
        "latitude": 1.2911644191593723,
        "longitude": 103.85045305820518
    },
    {
        "name": "Famous Amos - One Raffles Place",
        "latitude": 1.2844707,
        "longitude": 103.85123281666667
    },
    {
        "name": "Peach Garden - OCBC Centre",
        "latitude": 1.2854056,
        "longitude": 103.8493107
    },
    {
        "name": "Old Tea Hut - One Raffles Place",
        "latitude": 1.2843468846153845,
        "longitude": 103.8512387
    },
    {
        "name": "Perkatory Coffee Bar by Gratefood Co.",
        "latitude": 1.284451315511051,
        "longitude": 103.85047608230484
    },
    {
        "name": "Kanada-Ya - Change Alley Mall",
        "latitude": 1.2841991,
        "longitude": 103.8519326
    },
    {
        "name": "Proofer Bakery & Pizzeria - One Raffles Place",
        "latitude": 1.2842363,
        "longitude": 103.851215
    },
    {
        "name": "Day Night Herbal Soup - Raffles Place",
        "latitude": 1.2839653714285715,
        "longitude": 103.8517988
    },
    {
        "name": "IL Fiore Restaurant & Bar - Dungeon - Singapore Land Tower",
        "latitude": 1.2851375,
        "longitude": 103.8519151
    },
    {
        "name": "Hack It Seafood - The Riverwalk",
        "latitude": 1.289282,
        "longitude": 103.848307
    },
    {
        "name": "Pasta E Formaggio - Royal Group Building",
        "latitude": 1.284625,
        "longitude": 103.84979
    },
    {
        "name": "Gong Yuan Ma La Tang - Funan",
        "latitude": 1.2915614747726352,
        "longitude": 103.84985594470442
    },
    {
        "name": "Khushboo \u2013 The Fragrance of India - Boat Quay",
        "latitude": 1.2863083892823266,
        "longitude": 103.84963455627415
    },
    {
        "name": "George Town Tze Char And Craft Beer - Boat Quay",
        "latitude": 1.28843709,
        "longitude": 103.849151
    },
    {
        "name": "Wild Child Pizzette - Circular Road",
        "latitude": 1.28594,
        "longitude": 103.84959
    },
    {
        "name": "Bedok Bak Chor Mee - Circular Road",
        "latitude": 1.2876332,
        "longitude": 103.8488885
    },
    {
        "name": "Pink Fish - One Raffles Place",
        "latitude": 1.284898,
        "longitude": 103.851102
    },
    {
        "name": "Stuff'd - Funan",
        "latitude": 1.29106578346931,
        "longitude": 103.85038604662
    },
    {
        "name": "Fruit Paradise - Funan",
        "latitude": 1.29106578346931,
        "longitude": 103.85038604662
    },
    {
        "name": "Smooy - Funan",
        "latitude": 1.29128860338776,
        "longitude": 103.850389532962
    },
    {
        "name": "Old Airport Road Wonton Noodle",
        "latitude": 1.284142346,
        "longitude": 103.8528419
    },
    {
        "name": "Afuri - Funan",
        "latitude": 1.2914311222222221,
        "longitude": 103.8498501
    },
    {
        "name": "Phillip St Roasted Delight - Phillip Street",
        "latitude": 1.2845276,
        "longitude": 103.84967755275879
    },
    {
        "name": "NOKA - Funan",
        "latitude": 1.2912877666666667,
        "longitude": 103.850257
    },
    {
        "name": "Lucky69 Beer Cafe - North Canal Road",
        "latitude": 1.2864379,
        "longitude": 103.8483985
    },
    {
        "name": "Ikigai Izakaya - The Riverwalk",
        "latitude": 1.288854527,
        "longitude": 103.8481226
    },
    {
        "name": "Nanyang Chicken - South Bridge Road",
        "latitude": 1.2871673745712886,
        "longitude": 103.848049
    },
    {
        "name": "Manam - Upper Circular Road",
        "latitude": 1.2887344,
        "longitude": 103.848032
    },
    {
        "name": "Dimbulah CHOPPED Salads & Pasta - Philip Street",
        "latitude": 1.2846249,
        "longitude": 103.8497928
    },
    {
        "name": "Gin Khao - One Raffles Place",
        "latitude": 1.284133,
        "longitude": 103.850974
    },
    {
        "name": "Workspace Espresso Bar - Funan",
        "latitude": 1.291408,
        "longitude": 103.8498091
    },
    {
        "name": "LeNu - Funan",
        "latitude": 1.2913773711119774,
        "longitude": 103.8498679079259
    },
    {
        "name": "Potato Corner - Funan",
        "latitude": 1.2911423427005815,
        "longitude": 103.850452512407
    },
    {
        "name": "Urban Mix - One Raffles Place",
        "latitude": 1.284175,
        "longitude": 103.8511379
    },
    {
        "name": "Gado & Grill - One Raffles Place",
        "latitude": 1.2842647988995544,
        "longitude": 103.8511856
    },
    {
        "name": "Bawangchaji (FU) - Funan Mall",
        "latitude": 1.2914,
        "longitude": 103.84976
    },
    {
        "name": "Delibowl - Funan \u58f9\u7897\u798f\u5357\u6570\u7801\u5e7f\u573a",
        "latitude": 1.2912791,
        "longitude": 103.8503589
    },
    {
        "name": "Penyet King - Clifford Centre",
        "latitude": 1.2838694827884967,
        "longitude": 103.85196997720018
    },
    {
        "name": "Qin Ji Rougamo - One Raffles Place",
        "latitude": 1.28400835,
        "longitude": 103.85120835000001
    },
    {
        "name": "Bee Kee Truffle Wanton Noodle - CapitaSpring",
        "latitude": 1.2848815243836065,
        "longitude": 103.85026225030562
    },
    {
        "name": "Un-Yang-Kor-Dai - South Bridge",
        "latitude": 1.2871979,
        "longitude": 103.84811196527582
    },
    {
        "name": "5 Senses Bistro - Funan",
        "latitude": 1.291478,
        "longitude": 103.849743
    },
    {
        "name": "Empress - Asian Civilisations Museum",
        "latitude": 1.2871855,
        "longitude": 103.8512007
    },
    {
        "name": "New Shah Alam Restaurant - Circular Road",
        "latitude": 1.2872582456583075,
        "longitude": 103.84894450942261
    },
    {
        "name": "Spices & Curries - High Street Centre",
        "latitude": 1.2899945,
        "longitude": 103.84954636500001
    },
    {
        "name": "Syohachi Wagyu Hamburg - One Raffles Place",
        "latitude": 1.28495094565484,
        "longitude": 103.851051262433
    },
    {
        "name": "Jamaica Blue - One Raffles Place",
        "latitude": 1.2849413083333334,
        "longitude": 103.85083720126401
    },
    {
        "name": "Killiney Kopitiam - Lorong Telok",
        "latitude": 1.2867425,
        "longitude": 103.8486574
    },
    {
        "name": "Sushi Express - Funan",
        "latitude": 1.2911182921637732,
        "longitude": 103.8503335760318
    },
    {
        "name": "National Kitchen by Violet Oon - National Gallery",
        "latitude": 1.2910203,
        "longitude": 103.851952
    },
    {
        "name": "Yi En Vegetarian - CapitaSpring",
        "latitude": 1.2842383803367068,
        "longitude": 103.85021891876637
    },
    {
        "name": "Namaste Madras Kebab & Curry Indian Cuisine - South Bridge Road \ud83c\udfcd",
        "latitude": 1.287651,
        "longitude": 103.848166
    },
    {
        "name": "PS.Cafe - One Fullerton",
        "latitude": 1.2862578,
        "longitude": 103.8541728
    },
    {
        "name": "Joah Korean Restaurant - One Raffles Place",
        "latitude": 1.28495094565484,
        "longitude": 103.851051262433
    },
    {
        "name": "Mughlai Mumbai Curry And Grill Authentic North Indian Restaurant - South Bridge Road \ud83c\udfcd",
        "latitude": 1.287651,
        "longitude": 103.848166
    },
    {
        "name": "Le Tian Tian - One Raffles Place",
        "latitude": 1.2840216,
        "longitude": 103.8510695
    },
    {
        "name": "Re.juve - Market Street",
        "latitude": 1.284185,
        "longitude": 103.850272
    },
    {
        "name": "Qi Qi - South Bridge Road",
        "latitude": 1.2868414,
        "longitude": 103.84787706
    },
    {
        "name": "Tuca Restaurant - Boat Quay",
        "latitude": 1.2863031,
        "longitude": 103.8497744
    },
    {
        "name": "Bistro Aseana - One Fullerton",
        "latitude": 1.2865400333333332,
        "longitude": 103.85420394817982
    },
    {
        "name": "The Mask - Circular Road",
        "latitude": 1.2871178104873982,
        "longitude": 103.8488807260703
    },
    {
        "name": "Thaitanium - Circular Road",
        "latitude": 1.287421,
        "longitude": 103.848706
    },
    {
        "name": "Tong Xin Ru Yi - Lorong Telok",
        "latitude": 1.286922525,
        "longitude": 103.84877415
    },
    {
        "name": "Golden Village Goldbites - Funan",
        "latitude": 1.29109,
        "longitude": 103.8505
    },
    {
        "name": "Ricciotti - The Riverwalk",
        "latitude": 1.2892158391798627,
        "longitude": 103.84854476261046
    },
    {
        "name": "Ramanico Delights - High Street Plaza",
        "latitude": 1.29045,
        "longitude": 103.849358
    },
    {
        "name": "Omotenashi Dining Gosso - Boat Quay",
        "latitude": 1.28765618,
        "longitude": 103.84936619999999
    },
    {
        "name": "Tikka Taj - Boat Quay",
        "latitude": 1.2874317,
        "longitude": 103.8494
    },
    {
        "name": "BQ Bar - Boat Quay",
        "latitude": 1.2865752707440663,
        "longitude": 103.84972304799147
    },
    {
        "name": "Biryani Bae - Boat Quay",
        "latitude": 1.28735388,
        "longitude": 103.84934126557049
    },
    {
        "name": "Aburiya Japanese Bbq - Boat Quay",
        "latitude": 1.2883839067616427,
        "longitude": 103.84930274999999
    },
    {
        "name": "Kinara - Boat Quay",
        "latitude": 1.2873507,
        "longitude": 103.8493375
    },
    {
        "name": "Wagyu Bites by Aburiya - Boat Quay - Boat Quay",
        "latitude": 1.2883795,
        "longitude": 103.8492872
    },
    {
        "name": "Sahara Bar & Restaurant - 58 Boat Quay",
        "latitude": 1.2873979333333332,
        "longitude": 103.8493093
    },
    {
        "name": "Carl's Jr. - Funan Mall",
        "latitude": 1.2912711396327126,
        "longitude": 103.85021918649994
    },
    {
        "name": "The Soup Spoon - Raffles Xchange",
        "latitude": 1.2840148955530282,
        "longitude": 103.85148115900012
    },
    {
        "name": "Churros Republic - Funan Mall",
        "latitude": 1.29127554,
        "longitude": 103.8503161
    },
    {
        "name": "Haakon Superfoods & Juice - One Raffles Place",
        "latitude": 1.2839812533333335,
        "longitude": 103.85108987500001
    },
    {
        "name": "umisushi - One Raffles Place",
        "latitude": 1.2841377,
        "longitude": 103.8511642
    },
    {
        "name": "Mr Bean - Raffles Place MRT Station",
        "latitude": 1.2846465,
        "longitude": 103.8514938
    },
    {
        "name": "Little Ribbons Pasta Co. - Funan",
        "latitude": 1.29135,
        "longitude": 103.84999
    },
    {
        "name": "The Coffee Bean & Tea Leaf - Change Alley",
        "latitude": 1.284258,
        "longitude": 103.85193
    },
    {
        "name": "Jjak & Co. - Circular Road",
        "latitude": 1.286538184,
        "longitude": 103.8492418
    },
    {
        "name": "Overeasy - 1 Fullerton Road",
        "latitude": 1.2857264081488569,
        "longitude": 103.85390716784332
    },
    {
        "name": "Namino Hana - One Raffles Place",
        "latitude": 1.28495094565484,
        "longitude": 103.851051262433
    },
    {
        "name": "Hot Kitchen - The Quality Dining",
        "latitude": 1.287587658020642,
        "longitude": 103.84825924194568
    },
    {
        "name": "Haagen-Dazs - Funan",
        "latitude": 1.29128860338776,
        "longitude": 103.850389532962
    },
    {
        "name": "Godmama Modern Peranakan Kitchen - Funan Mall",
        "latitude": 1.2912,
        "longitude": 103.850133
    },
    {
        "name": "Patrons\u2019 Box - One Raffles Place",
        "latitude": 1.284898274,
        "longitude": 103.8513931
    },
    {
        "name": "Boat Quay Mix & Match",
        "latitude": 1.2864533288302482,
        "longitude": 103.84961838187411
    },
    {
        "name": "Harry's - Boat Quay",
        "latitude": 1.2860184,
        "longitude": 103.8499878
    },
    {
        "name": "Nelum Box - Boat Quay",
        "latitude": 1.287220684,
        "longitude": 103.8492059
    },
    {
        "name": "Fuqing Marina Bay Seafood Restaurant - Boat Quay Conservation Area",
        "latitude": 1.286790684,
        "longitude": 103.8493459
    },
    {
        "name": "Matchstick Masala - Boat Quay",
        "latitude": 1.28691,
        "longitude": 103.84929
    },
    {
        "name": "1826 - Boat Quay",
        "latitude": 1.28608,
        "longitude": 103.84983
    },
    {
        "name": "Forum Seafood Village Restaurant - Boat Quay",
        "latitude": 1.28659,
        "longitude": 103.84943
    },
    {
        "name": "Ju95 - Boat Quay Conservation",
        "latitude": 1.286560684,
        "longitude": 103.8494459
    },
    {
        "name": "Whitetree Caf\u00e9 - Circular Road",
        "latitude": 1.287156341,
        "longitude": 103.8490275
    },
    {
        "name": "The Working Class - Circular Road",
        "latitude": 1.28712,
        "longitude": 103.84901
    },
    {
        "name": "Szechwings - Circular Road",
        "latitude": 1.287512682,
        "longitude": 103.8489149
    },
    {
        "name": "Fire Ass Thai - Circular Road",
        "latitude": 1.287512682,
        "longitude": 103.8489149
    },
    {
        "name": "Dazzling Delish - Circular Road",
        "latitude": 1.286582944,
        "longitude": 103.8492159
    },
    {
        "name": "Rabbit Brand Seafood Delicacies - Circular Road",
        "latitude": 1.2877078,
        "longitude": 103.8488717
    },
    {
        "name": "Bollywood Masti - Circular Road",
        "latitude": 1.28674,
        "longitude": 103.84912
    },
    {
        "name": "Tom Yum Kung Fu - Boat Quay",
        "latitude": 1.2874854,
        "longitude": 103.8488753
    },
    {
        "name": "The Sandwich Shop - Hitachi Tower",
        "latitude": 1.2842471760851975,
        "longitude": 103.8525017513587
    },
    {
        "name": "The Alley - One Raffles Place",
        "latitude": 1.28495094565484,
        "longitude": 103.851051262433
    },
    {
        "name": "Marks & Spencer - One Raffles Place",
        "latitude": 1.2839178,
        "longitude": 103.8511279
    },
    {
        "name": "Tea Pulse - Royal Group Building",
        "latitude": 1.28469173,
        "longitude": 103.84980293846154
    },
    {
        "name": "Starbucks - EFG Building",
        "latitude": 1.2900014367994403,
        "longitude": 103.8497903
    },
    {
        "name": "Twelve Cupcakes - One Raffles Place",
        "latitude": 1.2840524,
        "longitude": 103.8511598
    },
    {
        "name": "Nasty Cookie Factory - Funan",
        "latitude": 1.2916424861264864,
        "longitude": 103.85055984287857
    },
    {
        "name": "Kaayaloram Kerala Restaurant - Boat Quay",
        "latitude": 1.28824859,
        "longitude": 103.849193
    },
    {
        "name": "King Kebab North Indian Restruant - South Bridge Road",
        "latitude": 1.287651,
        "longitude": 103.848166
    },
    {
        "name": "Tandoori Restaurant - South Bridge Road",
        "latitude": 1.287651,
        "longitude": 103.848166
    },
    {
        "name": "Huay Kwang Thai - North Canal Rd",
        "latitude": 1.2861201,
        "longitude": 103.84870056666666
    },
    {
        "name": "Jewel Coffee - Collyer Quay",
        "latitude": 1.2841325333333333,
        "longitude": 103.85257550040822
    },
    {
        "name": "Sinfonia Ristorante - Victoria Memorial Hall",
        "latitude": 1.288532,
        "longitude": 103.851568
    },
    {
        "name": "Tribe Restaurant - Old Parliament House",
        "latitude": 1.288543,
        "longitude": 103.851054
    },
    {
        "name": "Basque Kitchen by Aitor - The Fullerton Waterboat House",
        "latitude": 1.2870879,
        "longitude": 103.8534701
    },
    {
        "name": "Indian House/Dumpukht Grills & Curry - Boat Quay",
        "latitude": 1.287754,
        "longitude": 103.84936
    },
    {
        "name": "SuperWhite Cocktails \u8d85\u7ea7\u767d\u9152 [Islandwide Delivery]",
        "latitude": 1.2905544573698555,
        "longitude": 103.84940356721854
    },
    {
        "name": "Dolly Express - High Street Plaza [Islandwide Delivery]",
        "latitude": 1.290462,
        "longitude": 103.849303
    },
    {
        "name": "Two Wings - North Bridge Road",
        "latitude": 1.2912102,
        "longitude": 103.8503448
    },
    {
        "name": "O2 Bistro - Boat Quay Conservation Area",
        "latitude": 1.28608714070694,
        "longitude": 103.84871258957
    },
    {
        "name": "53 Galaxy Space - South Bridge Road",
        "latitude": 1.287350684,
        "longitude": 103.8482109
    },
    {
        "name": "The Taste of Bharath - High Street Plaza",
        "latitude": 1.2906387834337985,
        "longitude": 103.84934126098733
    },
    {
        "name": "A Gan Guo Kui - North Bridge Road",
        "latitude": 1.2912506453488373,
        "longitude": 103.85026020000001
    },
    {
        "name": "R&B Tea - Change Alley Mall",
        "latitude": 1.2842934499999998,
        "longitude": 103.8518866
    },
    {
        "name": "Sho Ryu Ramen - Funan Mall",
        "latitude": 1.2913524,
        "longitude": 103.8501395
    },
    {
        "name": "Kotobuki Japanese Restaurant - One Raffles Place",
        "latitude": 1.2842055541701487,
        "longitude": 103.85088724404521
    },
    {
        "name": "Pilcrow - Boat Quay Conservation Area",
        "latitude": 1.287490684,
        "longitude": 103.8491959
    },
    {
        "name": "Tong Fu Ju - 50 Boat Quay",
        "latitude": 1.2870869,
        "longitude": 103.8493938
    },
    {
        "name": "Curry Village - Authentic North Indian Cuisine",
        "latitude": 1.286321663976937,
        "longitude": 103.84963428122043
    },
    {
        "name": "Rubato - Boat Quay",
        "latitude": 1.28769,
        "longitude": 103.8492
    },
    {
        "name": "Tuca Restaurant - Boat Quay",
        "latitude": 1.2863031,
        "longitude": 103.8497744
    },
    {
        "name": "The Hitsuji Club - Circular Road",
        "latitude": 1.28637178,
        "longitude": 103.8491802
    },
    {
        "name": "Ramen Bar Suzuki - Circular Road",
        "latitude": 1.286171,
        "longitude": 103.849285
    },
    {
        "name": "The Penny Black Victorian London Pub - Boat Quay",
        "latitude": 1.28565556610716,
        "longitude": 103.849698171566
    },
    {
        "name": "Molly-Malone's Irish Pub - Circular Road",
        "latitude": 1.285916,
        "longitude": 103.849436
    },
    {
        "name": "Village Nasi Lemak Bar - Circular Road",
        "latitude": 1.2860617,
        "longitude": 103.8493161
    },
    {
        "name": "High Street Kitchen - High Street Centre",
        "latitude": 1.2900832,
        "longitude": 103.84951208386056
    },
    {
        "name": "Tiffin Walla Authentic Indian Curry - High Street Centre",
        "latitude": 1.290008899059124,
        "longitude": 103.84942246841315
    },
    {
        "name": "Byrd Box Fried Chicken & Burgers - High Street Centre",
        "latitude": 1.2900182880547626,
        "longitude": 103.84942575510274
    },
    {
        "name": "Corpus Callosum - Circular Road",
        "latitude": 1.2863087,
        "longitude": 103.8493231
    },
    {
        "name": "Los Amigos Taqueria - Circular Road",
        "latitude": 1.287441,
        "longitude": 103.84886172
    },
    {
        "name": "The Lounge at Riviera",
        "latitude": 1.2860287393844514,
        "longitude": 103.85407261458276
    },
    {
        "name": "Bap Bap Korean Rice Bowls - High Street Centre",
        "latitude": 1.290105,
        "longitude": 103.849531
    },
    {
        "name": "Hermano By Sleeping Giants - Circular Road",
        "latitude": 1.2873937472245722,
        "longitude": 103.84883201282128
    },
    {
        "name": "Tikka Express Authentic Indian Curry - High Street Centre",
        "latitude": 1.290297049,
        "longitude": 103.8492212
    },
    {
        "name": "Yatagarasu - Circular Road",
        "latitude": 1.2866129,
        "longitude": 103.84905810477571
    },
    {
        "name": "Brewerkz - One Fullerton",
        "latitude": 1.28568017651884,
        "longitude": 103.853801880263
    },
    {
        "name": "Cleopatra - Circular Road",
        "latitude": 1.28741439374102,
        "longitude": 103.848880001097
    },
    {
        "name": "Aroy-Dee Thai Kitchen - Boat Quay",
        "latitude": 1.2871698,
        "longitude": 103.8488409
    },
    {
        "name": "Tendon Kohaku - Circular Road",
        "latitude": 1.286335,
        "longitude": 103.8492034
    },
    {
        "name": "Dopa Dopa Creamery - South Bridge Road",
        "latitude": 1.2878,
        "longitude": 103.848611
    },
    {
        "name": "Freakin' Yummy Izakaya (FYI) - Circular Road",
        "latitude": 1.28600922,
        "longitude": 103.849236
    },
    {
        "name": "Yakizen - Boat Quay Conservation Area",
        "latitude": 1.286563,
        "longitude": 103.84861451118246
    },
    {
        "name": "Legendary Bak Kut Teh - South Bridge Road",
        "latitude": 1.287758,
        "longitude": 103.84844771
    },
    {
        "name": "Coffee Hive - The Adelphi",
        "latitude": 1.291343349,
        "longitude": 103.8515579
    },
    {
        "name": "Fruit Pai \u54c1\u679c\u6d3e - Funan",
        "latitude": 1.29106578346931,
        "longitude": 103.85038604662
    },
    {
        "name": "Onda By Pbd - Boat Quay Conservation Area",
        "latitude": 1.28645215,
        "longitude": 103.848686
    },
    {
        "name": "Sio Good - Funan Mall",
        "latitude": 1.2911383,
        "longitude": 103.8504767
    },
    {
        "name": "Pasta Papa - High Street Centre",
        "latitude": 1.29030532254301,
        "longitude": 103.849258382855
    },
    {
        "name": "Deli Belly - The Adelphi",
        "latitude": 1.291403,
        "longitude": 103.851529
    },
    {
        "name": "The Tequila Stop - Collyer Quay\ud83c\udfcd",
        "latitude": 1.284681,
        "longitude": 103.852917
    },
    {
        "name": "Beng Thin Hoon Kee - OCBC Centre",
        "latitude": 1.28546774398166,
        "longitude": 103.849360399838
    },
    {
        "name": "Bombay House - South Bridge Road",
        "latitude": 1.28763,
        "longitude": 103.84817
    },
    {
        "name": "Paradise Dynasty - Funan",
        "latitude": 1.2916398986687483,
        "longitude": 103.85064630185201
    },
    {
        "name": "Butter Bean - Funan Mall",
        "latitude": 1.2914878439013637,
        "longitude": 103.8507202
    },
    {
        "name": "CHICHA San Chen - Change Alley",
        "latitude": 1.2841536366923947,
        "longitude": 103.85178853817143
    },
    {
        "name": "WOK HEY - Funan",
        "latitude": 1.2915452804469254,
        "longitude": 103.8505320292112
    },
    {
        "name": "Sanook Kitchen - Funan Mall",
        "latitude": 1.2913950387570527,
        "longitude": 103.85024709090908
    },
    {
        "name": "Subway - Funan",
        "latitude": 1.2912632999963665,
        "longitude": 103.8503193
    },
    {
        "name": "Crave - Funan",
        "latitude": 1.29139080250296,
        "longitude": 103.8500729919972
    },
    {
        "name": "Kebabs Faktory - Funan",
        "latitude": 1.2914875285714287,
        "longitude": 103.85041130434782
    },
    {
        "name": "Tanamera Coffee - Oxley @ Raffles",
        "latitude": 1.2842655048781877,
        "longitude": 103.85222344418908
    },
    {
        "name": "Old Chang Kee - Funan",
        "latitude": 1.2912650666666665,
        "longitude": 103.850287475
    },
    {
        "name": "Gochi-so Shokudo - One Raffles Place",
        "latitude": 1.2839507470436993,
        "longitude": 103.85115090000001
    },
    {
        "name": "Ange Bakes Keto Bakery & Cafe - The Adelphi",
        "latitude": 1.2912595572981616,
        "longitude": 103.85148536439601
    },
    {
        "name": "Yan Ji Seafood Soup - Funan",
        "latitude": 1.29131015,
        "longitude": 103.85043239999999
    },
    {
        "name": "Ya Kun Kaya Toast - Funan Mall",
        "latitude": 1.2914203,
        "longitude": 103.8505049
    },
    {
        "name": "Eventasty Noodle Bar \u4e00\u7897\u7530\u62c9\u9762 - Funan",
        "latitude": 1.2912672692190004,
        "longitude": 103.8497891
    },
    {
        "name": "JonesMart - High Street Plaza\ud83c\udfcd",
        "latitude": 1.2908608824785464,
        "longitude": 103.84941059663592
    },
    {
        "name": "Grammi By Beppe de Vito - National Arts Gallery",
        "latitude": 1.2911005,
        "longitude": 103.85202370514135
    },
    {
        "name": "PARTEA X C-Mart - High Street Plaza",
        "latitude": 1.29017,
        "longitude": 103.8494666
    },
    {
        "name": "The Great Mischief - National Gallery Singapore",
        "latitude": 1.29118311065187,
        "longitude": 103.851916834359
    },
    {
        "name": "The Green Collective SG - Funan Mall",
        "latitude": 1.29106578346931,
        "longitude": 103.85038604662
    },
    {
        "name": "Fruit Pai \u54c1\u679c\u6d3e - Funan",
        "latitude": 1.29106578346931,
        "longitude": 103.85038604662
    },
    {
        "name": "Onda By Pbd - Boat Quay Conservation Area",
        "latitude": 1.28645215,
        "longitude": 103.848686
    },
    {
        "name": "Grand Cru Wine Concierge - The Fullerton Hotel [Islandwide Delivery]",
        "latitude": 1.2867261057218304,
        "longitude": 103.85285014824727
    },
    {
        "name": "Double Zero - Chan Brother @ 68",
        "latitude": 1.287320684,
        "longitude": 103.8479759
    },
    {
        "name": "Shangdong Restaurant - Boat Quay",
        "latitude": 1.2878081535179422,
        "longitude": 103.8493476
    },
    {
        "name": "Pasta Fresca Da Salvatore - Boat Quay",
        "latitude": 1.2860875148082518,
        "longitude": 103.8498811912407
    },
    {
        "name": "The Grill Knife - Raffles Place MRT Station",
        "latitude": 1.28463,
        "longitude": 103.85139
    },
    {
        "name": "Quick Greens - Funan Mall",
        "latitude": 1.29106578346931,
        "longitude": 103.85038604662
    },
    {
        "name": "Bee Kee Truffle Wanton Noodle - CapitaSpring",
        "latitude": 1.2848815243836065,
        "longitude": 103.85026225030562
    },
    {
        "name": "Fun Toast - One Raffles Place",
        "latitude": 1.2841922428571428,
        "longitude": 103.851137
    },
    {
        "name": "The Salad Shop - UOB Plaza 2",
        "latitude": 1.28501646306785,
        "longitude": 103.850796282207
    },
    {
        "name": "Macpherson BBQ Seafood - Leagoo Building",
        "latitude": 1.2880400919204202,
        "longitude": 103.8486363
    },
    {
        "name": "LiHO Tea - One Raffles Place",
        "latitude": 1.2845275666666667,
        "longitude": 103.8512432
    },
    {
        "name": "Hey Yummy! - Funan Mall",
        "latitude": 1.2912647499999999,
        "longitude": 103.8502961
    },
    {
        "name": "Flash Coffee - Royal Group Building",
        "latitude": 1.284755,
        "longitude": 103.849828
    },
    {
        "name": "Ramen Matsuri - 7 North Canal Road",
        "latitude": 1.28585474,
        "longitude": 103.8489065
    },
    {
        "name": "YiFang Taiwan Fruit Tea - Change Alley Mall",
        "latitude": 1.2842533624999999,
        "longitude": 103.8515987
    }
]